시군구명,어린이집코,어린이집명,어린이집유,운영현황,우편번호,상세주소,전화번호,보육실수,보육실 면,놀이터수,CCTV총설치,보육교직원,정원,현원,시설 위도(,시설 경도(,통학차량운,서울형어린이집,750_유아인구수,750m_서울형어립이집,750m_국공립어린이집
강서구,11500000356,e-다솔어린이집,가정,정상,7639,서울특별시 강서구 강서로45나길 15 101동 101호(내발산동 수산오성아파트),02-2696-5621,3,53,0,5,6,19,13,37.54860249,126.835403,운영,0,2160,6,7
강서구,11500000662,구립 스마일어린이집,국공립,정상,7691,서울특별시 강서구 강서로 266 114동 103호(화곡동 우장산아이파크 이편한세상),02-6278-7737,3,85,0,4,7,20,20,37.55044129,126.8367641,미운영,0,2172,6,7
강서구,11500000719,구립 청솔어린이집,국공립,정상,7638,서울특별시 강서구 강서로47마길 71 107호,02-2606-7045,3,58,0,5,7,19,12,37.5500975,126.8325381,미운영,0,2058,6,8
강서구,11500000266,베베키즈어린이집,가정,정상,7639,서울특별시 강서구 강서로45길 18 태승훼미리아파트 101동103호 (내발산동),02-2607-5595,4,52,0,5,3,18,7,37.54825438,126.835149,미운영,0,2155,6,7
강서구,11500000633,초롱어린이집,가정,정상,7694,서울특별시 강서구 우현로 67 118-101(화곡동강서힐스테이트),02-2601-6833,3,62,5,4,6,20,17,37.54705736,126.8395495,미운영,0,2221,6,7
강서구,11500000603,하늘샘어린이집,국공립,정상,7638,서울특별시 강서구 강서로47다길 35,02-2665-7611,5,189,1,10,13,71,64,37.55132626,126.8343098,미운영,0,2149,6,9
강서구,11500000362,한결어린이집,가정,정상,7691,서울특별시 강서구 강서로 266 111동 103호(화곡동 우장산아이파크이편한세상아파트),02-3667-1894,3,84,0,5,8,19,19,37.54999982,126.8367763,미운영,1,2227,6,7
강서구,11500000670,구립 드보라어린이집,국공립,정상,7638,서울특별시 강서구 강서로47길 63 103호(내발산동 예스빌),02-2666-5300,4,65,0,5,9,19,18,37.55276915,126.8326724,미운영,0,1772,5,10
강서구,11500000704,구립 모아어린이집,국공립,정상,7517,서울특별시 강서구 방화대로45길 78 101동 103호(방화동 보람쉬움아파트),02-2661-8767,4,60,0,5,9,20,18,37.57458953,126.8120673,미운영,0,1704,5,9
강서구,11500000733,구립 해담어린이집,국공립,정상,7609,서울특별시 강서구 금낭화로11길 36,02-2662-3265,5,206,1,11,15,73,63,37.57001877,126.810361,미운영,0,1417,5,8
강서구,11500000138,나래어린이집,국공립,정상,7517,서울특별시 강서구 양천로17길 25 (방화동),02-2664-9831,4,102,0,10,12,38,35,37.57456574,126.8126871,미운영,0,1814,5,9
강서구,11500000401,나무와숲어린이집,가정,정상,7609,서울특별시 강서구 양천로14길 37 102동 108호,02-2663-1010,4,76,0,4,8,20,20,37.57084923,126.8099259,미운영,0,1405,5,6
강서구,11500000623,라임어린이집,가정,정상,7694,서울특별시 강서구 우현로 67 113동 103호(화곡동강서힐스테이트),02-2693-2693,3,60,4,4,6,20,19,37.54703394,126.8388904,미운영,0,2134,5,7
강서구,11500000330,발산 빅스맘 어린이집,민간,정상,7693,서울특별시 강서구 우장산로2길 57 (내발산동),02-3664-8510,6,120,0,8,3,39,4,37.55226369,126.8371822,운영,0,1977,5,8
강서구,11500000242,발산어린이집,국공립,정상,7647,서울특별시 강서구 우장산로 45 구립 발산어린이집 (내발산동),02-3661-8894,8,699,1,16,26,141,105,37.5544416,126.8421884,미운영,0,1713,5,6
강서구,11500000145,사과나무어린이집,가정,정상,7604,서울특별시 강서구 양천로24가길 59 105동 102호(방화동 한진로즈힐),02-2664-6606,3,58,0,4,7,19,14,37.57171308,126.8122419,미운영,0,1864,5,10
강서구,11500000065,새싹어린이집,국공립,정상,7604,서울특별시 강서구 양천로24가길 73 (방화동),02-2665-4910,6,357,1,14,14,84,62,37.57048533,126.8133737,미운영,0,2062,5,13
강서구,11500000617,엔젤어린이집,가정,정상,7694,서울특별시 강서구 우현로 67 119동 103호,02-2602-1514,3,60,0,4,7,20,20,37.54641768,126.8395735,미운영,0,2252,5,9
강서구,11500000137,유성어린이집,민간,정상,7693,서울특별시 강서구 강서로48길 22 (내발산동),02-3664-0667,4,95,0,4,3,32,5,37.5524589,126.837742,운영,0,1951,5,7
강서구,11500000354,유창어린이집,가정,정상,7681,서울특별시 강서구 우장산로2길 21-22 101동 103호(내발산동 신세계5차),02-2663-2153,3,79,0,4,7,20,20,37.55348264,126.8387549,운영,1,1686,5,7
강서구,11500000590,이레어린이집,민간,정상,7609,서울특별시 강서구 금낭화로11길 48 (방화동 583-37),02-2665-0011,9,338,1,18,21,128,98,37.56946413,126.8100341,운영,0,1310,5,6
강서구,11500000700,잘자람어린이집,가정,정상,7604,서울특별시 강서구 방화대로37길 26 방화현대아파트101-102,02-2662-6660,4,62,0,4,8,19,16,37.57054093,126.8143527,미운영,0,2254,5,12
강서구,11500000325,혜시의사과나무어린이집,민간,정상,7705,서울특별시 강서구 강서로45길 37 (화곡동),02-2603-2888,8,383,1,10,19,116,104,37.54780486,126.8341003,운영,0,2142,5,10
강서구,11500000655,강서힐스테이트어린이집,민간,정상,7694,서울특별시 강서구 우현로 67,02-2607-7893,4,263,1,9,6,82,22,37.54611406,126.8382615,미운영,0,2155,4,9
강서구,11500000721,구립 피노키오어린이집,국공립,정상,7754,서울특별시 강서구 강서로12길 73,02-2605-7829,5,217,0,8,10,48,25,37.53226457,126.8511044,미운영,0,1920,4,9
강서구,11500000711,근로복지공단 강서어린이집,법인?단체등,정상,7707,서울특별시 강서구 강서로33가길 42,02-2690-2600,6,441,1,23,26,114,95,37.5435547,126.8378767,미운영,0,2230,4,7
강서구,11500000161,까치산어린이집,국공립,정상,7757,서울특별시 강서구 강서로12길 29-10,02-2699-2181,5,450,1,8,12,79,72,37.53236233,126.8484992,미운영,0,2179,4,9
강서구,11500000056,꼬마숲어린이집,민간,정상,7704,서울특별시 강서구 강서로45다길 30-27 초록아파트 단지 내 관리사무소 1층 꼬마숲어린이집,02-2696-3275,3,121,0,4,10,41,41,37.54563976,126.8340955,미운영,0,1900,4,8
강서구,11500000345,꿈사랑어린이집,가정,정상,7634,서울특별시 강서구 강서로47길 108 104동 101호(내발산동 마곡수명산파크1단지아파트),02-2667-1235,3,84,0,4,6,19,14,37.55487355,126.8314947,미운영,0,1492,4,9
강서구,11500000378,다해영재어린이집,민간,정상,7691,서울특별시 강서구 강서로 266 우장산대림e편한세상파크 관리동 다해영재어린이집,02-2608-0101,5,218,1,8,14,70,59,37.54878041,126.8394695,미운영,0,2144,4,7
강서구,11500000374,동그라미어린이집,가정,정상,7691,서울특별시 강서구 강서로 266 117동 102호(화곡동 우장산아이파크이편한세상아파트),02-832-4350,4,111,0,6,5,20,13,37.5498844,126.8380242,미운영,0,2207,4,8
강서구,11500000194,또래방어린이집,가정,정상,7691,서울특별시 강서구 강서로 266 126동 104호(화곡동 우장산아이파크이편한세상),02-2605-1406,3,100,0,4,7,20,18,37.54984031,126.8387175,미운영,1,2233,4,8
강서구,11500000409,리틀현대아이어린이집,가정,정상,7651,서울특별시 강서구 강서로 348 118동 103호(내발산동 현대홈타운),02-2658-0158,4,80,0,4,8,20,19,37.55584496,126.8400089,미운영,0,1541,4,6
강서구,11500000134,몬테소리동화나라어린이집,가정,정상,7605,서울특별시 강서구 방화대로 319 101동 102호(방화동 길성아파트),02-2661-6335,4,60,0,4,8,20,20,37.56929364,126.816164,미운영,1,2687,4,15
강서구,11500000618,별나라어린이집,가정,정상,7694,서울특별시 강서구 우현로 67 108동 101호(화곡동 강서힐스테이트),02-2603-2378,3,58,3,4,7,18,15,37.54605039,126.8378232,미운영,0,2161,4,10
강서구,11500000256,새빛아이어린이집,가정,정상,7706,서울특별시 강서구 강서로33가길 86 101동 106호(화곡동 프라임팰리스),02-2603-7288,4,53,0,4,4,19,8,37.54520119,126.8361871,미운영,0,2047,4,10
강서구,11500000106,새소망어린이집,민간,정상,7742,서울특별시 강서구 강서로18길 125 (화곡동),02-2601-0885,4,118,0,5,12,34,32,37.53528686,126.8524476,미운영,0,2130,4,11
강서구,11500000418,성산어린이집,민간,정상,7614,서울특별시 강서구 개화동로23길 111,02-2663-0471,5,194,1,6,15,70,61,37.56539789,126.8111282,운영,1,1812,4,7
강서구,11500000369,수명산어린이집,민간,정상,7634,서울특별시 강서구 강서로47길 108 마곡수명산파크 1단지 보육시설,02-2667-8532,4,101,0,5,6,35,12,37.55353857,126.8304424,미운영,1,1552,4,9
강서구,11500000363,아기새어린이집,가정,정상,7610,서울특별시 강서구 양천로6길 57 102동 106호(방화동 이편한세상아파트),02-2664-7277,4,93,0,4,10,20,20,37.570006,126.8080349,미운영,1,1188,4,6
강서구,11500000353,아이삭어린이집,가정,정상,7634,서울특별시 강서구 강서로47길 108 106동 101호(내발산동 마곡수명산파크1단지아파트),02-2667-1006,4,69,0,5,8,20,14,37.55427354,126.8309019,미운영,1,1549,4,9
강서구,11500000074,예심어린이집,가정,정상,7696,서울특별시 강서구 화곡로31길 18-3,02-2699-0698,3,55,0,5,6,20,14,37.54431085,126.8423477,미운영,0,2493,4,5
강서구,11500000536,잼잼서밋어린이집,민간,정상,7610,서울특별시 강서구 양천로14길 118 우림상가 1층 (방화동),02-2662-9009,4,127,0,5,6,26,22,37.56867343,126.8085901,미운영,0,1066,4,5
강서구,11500000636,진양아이어린이집,민간,정상,7726,서울특별시 강서구 까치산로 18-10,02-2699-9041,5,103,0,7,4,37,6,37.54135871,126.8430219,미운영,0,2626,4,6
강서구,11500000563,진영꼬마숲어린이집,가정,정상,7759,서울특별시 강서구 곰달래로27길 6 301호,02-2604-5111,3,63,0,3,3,20,10,37.53105654,126.8505552,미운영,0,1744,4,7
강서구,11500000240,초록별어린이집,가정,정상,7704,서울특별시 강서구 강서로45다길 30-27 106동 201호(화곡동 초록아파트),02-2604-9470,3,62,0,3,8,20,17,37.54521756,126.8334005,운영,1,1695,4,7
강서구,11500000115,한울어린이집,국공립,정상,7690,서울특별시 강서구 우현로 34,02-2602-3886,6,308,1,12,15,90,77,37.5482876,126.8417709,미운영,0,2200,4,7
강서구,11500000210,햇살어린이집,가정,정상,7688,서울특별시 강서구 화곡로53길 43-13,02-2606-1732,4,50,0,4,8,19,18,37.55117365,126.8464308,미운영,0,1965,4,6
강서구,11500000281,개구리 어린이집,협동,정상,7724,서울특별시 강서구 초록마을로24길 21-4,02-2691-7338,4,80,0,10,7,32,18,37.53920286,126.850679,미운영,0,2078,3,8
강서구,11500000668,구립 보솜어린이집,국공립,정상,7588,서울특별시 강서구 공항대로43길 39 1106동 1층 6호,02-2658-0223,4,96,3,6,10,28,23,37.55924761,126.8496331,미운영,0,1924,3,11
강서구,11500000735,구립 신태양어린이집,국공립,정상,7745,서울특별시 강서구 곰달래로31다길 25,02-2699-1921,7,306,1,30,16,99,79,37.53363601,126.8526347,미운영,0,1969,3,10
강서구,11500000685,구립 아기별어린이집,국공립,정상,7651,서울특별시 강서구 강서로 348 108동 101호(내발산동 우장산힐스테이트),02-3661-8846,3,60,0,5,7,20,20,37.55649444,126.8389125,미운영,0,1407,3,7
강서구,11500000012,구립 아이솔 어린이집,국공립,정상,7621,서울특별시 강서구 개화동로27길 13 (방화동),02-2664-9574,6,180,1,9,12,71,48,37.56444575,126.8073559,미운영,0,767,3,3
강서구,11500000714,구립 진로어린이집,국공립,정상,7587,서울특별시 강서구 공항대로 351-21 102동 102호,02-2658-4979,3,85,0,4,8,19,19,37.55982528,126.8469354,미운영,0,1636,3,10
강서구,11500000429,꿈땅어린이집,가정,정상,7682,서울특별시 강서구 우장산로8길 42 천우네오젠아파트 101호 (내발산동),02-2063-3392,3,52,0,4,4,19,8,37.55283182,126.8405217,미운영,0,1980,3,6
강서구,11500000046,동성어린이집,민간,정상,7726,서울특별시 강서구 강서로26길 63,02-2605-4176,8,216,1,10,15,78,68,37.54061849,126.8453821,미운영,0,2279,3,8
강서구,11500000118,로뎀어린이집,민간,정상,7605,서울특별시 강서구 양천로24길 31 로뎀어린이집 (방화동),02-2664-7060,8,308,1,10,14,115,68,37.57195771,126.8157698,미운영,0,2141,3,13
강서구,11500000075,롯데어린이집,민간,정상,7648,서울특별시 강서구 공항대로 382 롯데낙천대아파트 단지 내  롯데어린이집,02-2699-1188,4,114,0,7,10,43,41,37.55573578,126.8494817,운영,1,1577,3,7
강서구,11500000631,리라어린이집,민간,정상,7723,서울특별시 강서구 초록마을로18길 36,02-2605-3355,8,197,1,10,15,74,67,37.54056986,126.8488757,운영,0,1994,3,8
강서구,11500000665,미즈메디어린이집,직장,정상,7682,서울특별시 강서구 우장산로4길 25 1004동 1층 101호,02-2659-1419,3,55,0,7,3,19,3,37.55319664,126.8394617,미운영,0,1883,3,7
강서구,11500000557,버클리 어린이집,민간,정상,7637,서울특별시 강서구 강서로47바길 21,02-2663-5955,7,281,2,16,8,96,22,37.55247242,126.830122,운영,0,1598,3,9
강서구,11500000197,병아리어린이집,가정,정상,7587,서울특별시 강서구 공항대로 351-21 101동 106호(등촌동 진로미주아파트),02-2668-3574,3,60,0,4,7,19,19,37.55923971,126.8469961,미운영,1,1721,3,9
강서구,11500000544,뽀로로와친구들 어린이집,가정,정상,7723,서울특별시 강서구 초록마을로16길 24 (화곡동),02-2694-2023,3,80,0,4,2,18,3,37.54108007,126.849267,미운영,1,1951,3,7
강서구,11500000200,서울YMCA방화어린이집,국공립,정상,7611,서울특별시 강서구 개화동로21길 4 방화11단지아파트 내 서울YMCA방화어린이집 (방화동),02-2661-0255,3,193,0,4,8,45,33,37.56943517,126.8060752,미운영,0,890,3,4
강서구,11500000011,성모어린이집,국공립,정상,7576,서울특별시 강서구 공항대로43길 104 주공아파트 7단지 등촌7복지관 성모어린이집 (등촌동),02-2658-6524,5,120,1,12,10,59,31,37.56040704,126.8509352,미운영,0,1875,3,12
강서구,11500000300,숲속나라어린이집,민간,정상,7730,서울특별시 강서구 까치산로4길 64-6 (화곡동),02-2695-1918,4,107,0,6,10,40,40,37.54026657,126.8458369,미운영,0,2245,3,8
강서구,11500000108,신영광어린이집,민간,정상,7576,서울특별시 강서구 공항대로43길 104 주공아파트 8단지관리사무소2층 (등촌동),02-2658-2592,4,81,1,6,7,32,10,37.56080787,126.8508495,운영,1,1864,3,12
강서구,11500000543,아띠어린이집,가정,정상,7730,서울특별시 강서구 까치산로4다길 20 (화곡동),02-2601-1608,3,48,0,4,5,14,11,37.53991469,126.8452623,미운영,0,2195,3,7
강서구,11500000404,아름드리어린이집,가정,정상,7730,서울특별시 강서구 까치산로4라길 20 (화곡동),02-2695-2295,3,54,0,4,5,19,14,37.53899261,126.8457051,미운영,0,2227,3,7
강서구,11500000188,아이꿈어린이집,가정,정상,7586,서울특별시 강서구 공항대로39길 74 505동 105호(등촌동 등촌주공5단지아파트),02-3662-5201,4,41,0,4,3,15,8,37.56044426,126.844863,미운영,0,1521,3,10
강서구,11500000360,아이랑어린이집,가정,정상,7516,서울특별시 강서구 양천로3길 17 101동 106호(방화동 개화산 동부센트레빌),02-2665-4552,4,50,0,4,7,18,14,37.57297643,126.8062925,미운영,0,1002,3,6
강서구,11500000622,아이큰숲아기학교어린이집,가정,정상,7676,서울특별시 강서구 초록마을로21길 29,02-2607-2235,4,54,0,5,4,17,8,37.5408236,126.8528853,미운영,0,1781,3,7
강서구,11500000399,아이큰숲자연학교어린이집,민간,재개,7676,서울특별시 강서구 초록마을로21길 37 아이큰숲자연학교,02-2691-0489,4,284,2,8,12,66,54,37.54097205,126.8532596,운영,0,1769,3,6
강서구,11500000101,어린왕자어린이집,민간,정상,7751,서울특별시 강서구 강서로18가길 25 (화곡동),02-2602-7607,6,186,1,14,5,69,19,37.53505599,126.8462733,미운영,0,2679,3,10
강서구,11500000097,예원비전스쿨어린이집,민간,재개,7730,서울특별시 강서구 강서로24길 65 (화곡동),02-3665-9126,7,213,1,10,10,72,34,37.5394472,126.8462913,운영,0,2184,3,6
강서구,11500000140,오즈 어린이집,가정,정상,7517,서울특별시 강서구 방화대로45길 32 101동 102호(방화동 방화동부센트레빌),02-2665-9946,4,56,0,4,7,20,20,37.57484322,126.8143816,미운영,1,1850,3,9
강서구,11500000728,이화의료원어린이집,직장,정상,7804,서울특별시 강서구 공항대로 260 B관 4층,02-6986-5950,3,92,1,13,11,30,15,37.55704866,126.8365332,미운영,0,1281,3,7
강서구,11500000292,조은어린이집,가정,정상,7611,서울특별시 강서구 양천로6길 28 1206동 101호(방화동 방화도시개발공사아파트),02-2661-4582,3,43,0,3,7,16,15,37.5700915,126.8065971,미운영,1,945,3,6
강서구,11500000577,쥬빌리어린이집,가정,정상,7616,서울특별시 강서구 방화대로23길 60-15 (방화1동 611-165),02-2661-1193,4,39,0,5,4,13,4,37.56475918,126.8131644,미운영,0,2214,3,11
강서구,11500000749,청정원 마곡 어린이집,직장,정상,7616,서울특별시 강서구 초원로16길 12,02-2664-1613,4,170,0,0,6,49,9,37.56689519,126.8150126,,0,2857,3,12
강서구,11500000112,초록어린이집,국공립,정상,7676,서울특별시 강서구 초록마을로 81 (화곡동),02-2607-0359,5,250,2,12,12,67,63,37.54094342,126.8510676,미운영,0,1791,3,8
강서구,11500000057,초록영재어린이집,민간,정상,7723,서울특별시 강서구 초록마을로14길 2 (화곡동),02-2698-2293,6,137,0,7,7,39,22,37.54179033,126.8502179,운영,0,1788,3,7
강서구,11500000067,푸른어린이집,국공립,정상,7577,서울특별시 강서구 화곡로63가길 92 (등촌동),02-2658-5513,5,240,1,8,11,77,64,37.5617887,126.8498544,미운영,0,1973,3,13
강서구,11500000047,하얀마음어린이집,민간,정상,7723,서울특별시 강서구 초록마을로14길 24 (화곡동),02-2603-3910,3,84,0,3,7,21,12,37.54135543,126.8491486,운영,0,1929,3,8
강서구,11500000382,해송어린이집,가정,정상,7752,서울특별시 강서구 강서로18바길 9 골든리치빌102호 (화곡동),02-2605-5226,3,45,0,4,6,16,11,37.53547946,126.8497742,미운영,0,2352,3,10
강서구,11500000297,해아띠스쿨어린이집,민간,정상,7725,서울특별시 강서구 초록마을로6길 37-13,02-6085-7772,6,253,2,7,15,94,76,37.54082092,126.846881,미운영,0,2101,3,8
강서구,11500000405,해피엔젤어린이집,민간,재개,7677,서울특별시 강서구 까치산로12길 59,02-2608-3562,6,173,1,8,15,64,64,37.54285967,126.8488174,미운영,0,1792,3,6
강서구,11500000667,홈플러스어린이집,직장,정상,7567,서울특별시 강서구 화곡로 398 1층(등촌동 홈플러스 강서점 앤 본사사옥),070-4727-8805,4,187,1,22,15,49,34,37.55840515,126.8550192,미운영,0,1896,3,14
강서구,11500000261,화곡꼬마천사어린이집,가정,정상,7728,서울특별시 강서구 강서로26길 11 (화곡동),02-2694-7982,5,90,0,8,8,20,20,37.5394022,126.8427978,미운영,0,2418,3,5
강서구,11500000438,BeBe스쿨어린이집,가정,정상,7725,서울특별시 강서구 초록마을로 146 102호,02-335-1730,3,55,0,4,7,20,18,37.53691464,126.8482806,미운영,0,2483,2,11
강서구,11500000184,강서구청어린이집,직장,정상,7663,서울특별시 강서구 화곡로44나길 72 1층2층 강서구청어린이집,070-8879-0622,4,198,0,18,15,49,34,37.54977756,126.8509648,미운영,0,1295,2,5
강서구,11500000710,강서햇빛발도르프어린이집,협동,정상,7662,서울특별시 강서구 까치산로18길 35 강서햇빛발도르프어린이집,02-2653-2462,3,94,0,0,7,35,17,37.54671627,126.8508408,미운영,0,1385,2,6
강서구,11500000013,구립 가양 어린이집,국공립,정상,7523,서울특별시 강서구 양천로49길 26 (가양동),02-3662-9691,6,199,2,12,14,87,77,37.56990845,126.8408957,미운영,0,839,2,3
강서구,11500000681,구립 꼬꼬마라인어린이집,국공립,정상,7548,서울특별시 강서구 화곡로68길 33 102동 101호(등촌동 라인아파트),02-6736-2352,4,60,0,4,8,20,20,37.55951064,126.8564658,미운영,0,1850,2,12
강서구,11500000660,구립 노블키즈어린이집,국공립,정상,7634,서울특별시 강서구 강서로47길 108 109동 102호,02-6012-2430,3,70,0,6,8,20,19,37.55394254,126.8294145,미운영,0,1403,2,8
강서구,11500000672,구립 뽄다어린이집,국공립,정상,7768,서울특별시 강서구 강서로17라길 7-8 (화곡동),02-2648-0148,4,68,0,6,10,20,20,37.53285642,126.840338,미운영,0,1664,2,6
강서구,11500000734,구립 새하늘어린이집,국공립,정상,7768,서울특별시 강서구 강서로17다길 15-14,02-2603-2225,7,245,1,32,15,92,87,37.53329711,126.8414119,미운영,0,1911,2,6
강서구,11500000720,구립 샛별어린이집,국공립,정상,7730,서울특별시 강서구 초록마을로 166,02-2606-5070,3,106,0,5,9,19,18,37.53633516,126.8460868,미운영,0,2617,2,10
강서구,11500000729,구립 아이나무어린이집,국공립,정상,7711,서울특별시 강서구 화곡로13가길 5,02-6949-1305,5,130,1,20,12,48,44,37.54136832,126.833593,미운영,0,1325,2,5
강서구,11500000739,구립 우장숲어린이집,국공립,정상,7695,서울특별시 강서구 화곡로41길 19,02-2691-3690,5,215,1,24,14,72,57,37.54645059,126.8439612,미운영,0,2238,2,4
강서구,11500000738,구립 이든아이어린이집,국공립,정상,7674,서울특별시 강서구 까치산로18나길 22-1,02-2605-0241,5,186,1,8,11,59,46,37.54634468,126.8491272,미운영,0,1621,2,6
강서구,11500000684,구립 큰별어린이집,국공립,정상,7578,서울특별시 강서구 화곡로63가길 71 1005동 106호(등촌동 등촌주공10단지아파트),02-3664-4775,3,50,0,4,6,15,15,37.56247823,126.8483052,미운영,0,1633,2,11
강서구,11500000661,구립 푸른별어린이집,국공립,정상,7634,서울특별시 강서구 강서로47길 158 201동 104호,02-2667-2288,3,72,0,4,12,20,20,37.55386354,126.8277539,미운영,0,1490,2,8
강서구,11500000722,구립 푸른솔어린이집,국공립,정상,7703,서울특별시 강서구 화곡로13길 107 104동 104호(화곡동화곡푸르지오),02-6342-0042,4,55,0,4,8,19,18,37.54240976,126.8309768,미운영,0,868,2,4
강서구,11500000730,구립 하늘마음어린이집,국공립,정상,7724,서울특별시 강서구 초록마을로 106,02-6959-7736,7,154,1,24,15,51,41,37.53899993,126.8514078,미운영,0,2021,2,8
강서구,11500000044,구립 하늘숲어린이집,국공립,정상,7710,서울특별시 강서구 강서로45다길 102 (화곡동),02-2699-2220,5,225,2,14,15,83,71,37.54325103,126.8329648,미운영,0,1304,2,4
강서구,11500000718,구립 한빛어린이집,국공립,정상,7783,서울특별시 강서구 강서로8길 134,02-2697-6711,8,566,1,11,27,132,100,37.5303892,126.8555062,미운영,0,1306,2,6
강서구,11500000705,구립 한숲어린이집,국공립,정상,7518,서울특별시 강서구 방화대로50길 7 101동 102호(방화동 한숲마을대림아파트),02-6348-7942,4,60,0,4,8,20,16,37.57706018,126.8175996,미운영,0,1379,2,7
강서구,11500000737,구립대우주어린이집,국공립,정상,7703,서울특별시 강서구 화곡로13길 107 135동 101호,02-2605-7313,4,97,0,5,10,20,20,37.5444628,126.8316879,미운영,0,1268,2,6
강서구,11500000584,굿모닝어린이집,가정,정상,7548,서울특별시 강서구 화곡로68길 33 라인아파트101-104,02-6341-5200,4,58,1,4,7,20,20,37.55902817,126.8561074,미운영,0,1863,2,12
강서구,11500000179,귀염이어린이집,가정,정상,7524,서울특별시 강서구 강서로 532 101동 102호(가양동 동신아파트),02-2659-7337,4,67.12,2,5,9,20,20,37.57307183,126.8432463,미운영,1,588,2,1
강서구,11500000745,근로복지공단 곰달래어린이집,법인?단체등,정상,7740,서울특별시 강서구 곰달래로53길 30-20,02-2646-7142,5,216,1,32,19,70,61,37.53367005,126.8602518,미운영,0,1140,2,5
강서구,11500000189,까꿍어린이집,가정,정상,7783,서울특별시 강서구 강서로10길 150 (화곡동),02-2608-3465,2,59,0,3,3,12,4,37.53091482,126.8561501,미운영,0,1388,2,7
강서구,11500000575,꼬마궁어린이집,가정,정상,7739,서울특별시 강서구 등촌로13바길 49-12,02-2652-3805,3,39,0,4,6,14,12,37.53521199,126.8574965,미운영,0,1602,2,7
강서구,11500000392,꼬마별어린이집,가정,정상,7592,서울특별시 강서구 방화대로44길 42 101동 103호(방화동 승윤노블리안아파트),02-2666-9551,4,61,0,4,7,19,13,37.57144261,126.8176841,미운영,0,2007,2,14
강서구,11500000531,꿈꾸는어린이집,민간,정상,7512,서울특별시 강서구 금낭화로24가길 21 (방화동),02-2665-5000,6,135,0,7,8,47,27,37.57901608,126.8151864,운영,0,955,2,6
강서구,11500000078,꿈을여는어린이집,민간,정상,7740,서울특별시 강서구 곰달래로53가길 6 (화곡동),02-2648-2445,10,311,1,15,20,99,81,37.53352024,126.8592875,운영,0,1264,2,6
강서구,11500000286,나무와열매어린이집,민간,정상,7519,서울특별시 강서구 방화대로48길 40 방화2단지아파트(방화동),02-2662-6668,6,276,1,12,20,99,79,37.57520118,126.8186089,운영,0,1657,2,9
강서구,11500000077,늘푸른어린이집,민간,정상,7767,서울특별시 강서구 가로공원로76가길 53 2층 (화곡동),02-2693-6028,4,108,0,4,8,39,34,37.53407015,126.8417299,미운영,0,2133,2,7
강서구,11500000081,늘품어린이집,민간,정상,7751,서울특별시 강서구 강서로18다길 41 2층,02-2608-0177,5,132,0,7,6,39,15,37.53595984,126.8467353,미운영,0,2732,2,10
강서구,11500000215,단꿈어린이집,가정,정상,7522,서울특별시 강서구 양천로47길 118 104동 101호 (마곡동 벽산아파트),02-6341-7979,3,64,0,4,7,20,19,37.57538898,126.8377624,미운영,0,299,2,1
강서구,11500000411,단향어린이집,가정,정상,7730,서울특별시 강서구 초록마을로 156-3,02-3662-8648,2,49,0,4,7,14,8,37.53646037,126.8471048,미운영,1,2573,2,10
강서구,11500000204,달님별님어린이집,가정,정상,7738,서울특별시 강서구 곰달래로51길 14 (화곡동),02-2653-1335,3,90,0,4,8,20,19,37.53236828,126.8585119,미운영,0,1327,2,6
강서구,11500000207,대림어린이집,가정,정상,7579,서울특별시 강서구 공항대로39길 100 105동 103호(등촌동 대림아파트),02-3662-6422,3,60,0,4,6,20,13,37.56257367,126.8472071,미운영,0,1505,2,10
강서구,11500000583,도토리어린이집,가정,정상,7738,서울특별시 강서구 곰달래로51길 46,02-2649-4912,3,57,0,4,6,20,15,37.53380936,126.8580736,미운영,0,1405,2,6
강서구,11500000567,동성스마일어린이집,가정,정상,7580,서울특별시 강서구 강서로68길 108 동성아파트 106-106,02-2699-1003,3,56,0,4,6,20,18,37.56375765,126.8465652,미운영,0,1565,2,10
강서구,11500000229,동화나라어린이집,가정,정상,7519,서울특별시 강서구 양천로 125 101동 107호(방화동 장미아파트),02-2666-5989,4,57,0,5,5,20,12,37.57369488,126.8175456,미운영,0,1923,2,11
강서구,11500000445,드림어린이집,국공립,정상,7641,서울특별시 강서구 수명로2길 50 (내발산동),02-2662-8170,4,164,1,6,8,49,19,37.54941891,126.8262733,미운영,0,1315,2,7
강서구,11500000625,딸기어린이집,가정,정상,7630,서울특별시 강서구 마곡중앙로 33 마곡엠밸리 14단지 1403-105,02-6214-5887,3,72,1,4,7,20,15,37.5568299,126.8245781,미운영,0,2358,2,8
강서구,11500000664,마곡 이화어린이집,민간,정상,7599,서울특별시 강서구 마곡중앙3로 74 관리동 1층(마곡동마곡힐스테이트),02-2663-7171,6,301,2,13,17,79,70,37.56452435,126.8171209,미운영,0,2973,2,13
강서구,11500000364,마곡 행복한i어린이집,민간,정상,7635,서울특별시 강서구 수명로2길 63 마곡수명산파크602동 관리동,02-2667-7714,4,80,0,5,4,25,7,37.55027349,126.8257698,미운영,0,1225,2,7
강서구,11500000639,마곡1 하람어린이집,국공립,정상,7598,서울특별시 강서구 마곡서1로 131,02-2663-0101,3,129,1,7,9,23,23,37.56838715,126.8184386,미운영,0,2725,2,15
강서구,11500000638,마곡14 아이마당어린이집,국공립,정상,7630,서울특별시 강서구 마곡중앙로 33 상가동 1층,02-2661-1477,7,345,3,10,17,95,75,37.55662025,126.8259848,미운영,0,2039,2,9
강서구,11500000642,마곡15 누리어린이집,국공립,정상,7811,서울특별시 강서구 마곡중앙로 36,02-2663-0015,6,485,3,13,16,82,69,37.55645949,126.82695,미운영,0,1737,2,8
강서구,11500000643,마곡5 해맑은어린이집,국공립,정상,7599,서울특별시 강서구 마곡서1로 111-11,02-2666-0008,5,180,1,8,13,66,66,37.56577925,126.8172904,미운영,0,2773,2,13
강서구,11500000679,마곡8 열린숲어린이집,국공립,정상,7599,서울특별시 강서구 마곡서1로 81 807동 1층(마곡동 마곡엠밸리8단지),02-2039-8301,6,203,1,10,17,65,63,37.56386299,126.8191429,미운영,0,2843,2,14
강서구,11500000385,마곡사임당어린이집,민간,정상,7635,서울특별시 강서구 수명로2길 105 마곡수명산파크5단지 509동 관리동 마곡사임당어린이집,02-2667-6548,4,104,0,7,9,39,22,37.55234931,126.8273726,미운영,0,1366,2,8
강서구,11500000649,마곡아이숲어린이집,가정,정상,7811,서울특별시 강서구 마곡중앙로 36 1503동 105호(발산1동 마곡엠밸리15단지),02-6448-7839,3,76,0,4,6,20,20,37.55707207,126.8284227,미운영,0,1404,2,7
강서구,11500000221,마곡자연숲어린이집,민간,정상,7643,서울특별시 강서구 수명로1길 110 마곡수명산파크3단지 303,02-2667-7728,3,99,0,4,7,37,14,37.55356847,126.8246933,미운영,0,1763,2,8
강서구,11500000146,미소가득어린이집,가정,정상,7597,서울특별시 강서구 방화대로40길 66 태승훼미리 105호 (방화동),02-2666-3957,4,68,0,4,8,19,18,37.57132008,126.8200361,미운영,0,1763,2,12
강서구,11500000130,방화엔젤어린이집,민간,정상,7510,서울특별시 강서구 금낭화로 287-19 (방화동),02-2662-2230,6,189,1,11,13,67,56,37.57804638,126.8102133,운영,0,1029,2,4
강서구,11500000580,보배어린이집,가정,정상,7713,서울특별시 강서구 강서로33가길 13-13 (화곡3동 1050-26),02-2605-1253,4,40,0,4,5,14,11,37.54213361,126.838433,미운영,0,2311,2,6
강서구,11500000245,보성어린이집,국공립,정상,7519,서울특별시 강서구 방화대로48길 40 (방화동),02-2662-6665,4,360,1,9,13,84,59,37.57482171,126.8193937,미운영,0,1612,2,12
강서구,11500000337,쁘띠아미 에꼴 어린이집,민간,정상,7737,서울특별시 강서구 곰달래로53길 133 (화곡동),02-2647-4700,8,242,1,9,12,81,46,37.53668953,126.8555733,운영,0,1895,2,8
강서구,11500000177,사랑둥이어린이집,가정,정상,7651,서울특별시 강서구 강서로 348 111동 101호(내발산동 우장산현대홈타운아파트),02-2668-1515,3,45,0,3,6,17,16,37.55705769,126.8390751,미운영,0,1330,2,5
강서구,11500000620,사랑샘어린이집,가정,정상,7599,서울특별시 강서구 마곡서1로 111-11 마곡엠밸리 503-104,070-8253-9495,4,62,0,4,9,20,20,37.5653312,126.818879,미운영,0,2873,2,14
강서구,11500000560,사랑어린이집,가정,정상,7524,서울특별시 강서구 허준로 23 한강타운 105동 101호,02-3662-5153,3,84,0,6,7,19,18,37.57056589,126.8440609,미운영,0,870,2,2
강서구,11500000246,상록어린이집,국공립,정상,7510,서울특별시 강서구 금낭화로23길 25 (방화동),02-2661-4700,4,193,1,8,8,45,39,37.57795522,126.810955,미운영,0,1110,2,4
강서구,11500000302,새빛어린이집,가정,정상,7718,서울특별시 강서구 화곡로18길 14-41 1층 새빛어린이집,02-2608-7830,3,62,0,4,7,20,16,37.5391349,126.8343475,미운영,0,1235,2,5
강서구,11500000371,새서원어린이집,가정,정상,7720,서울특별시 강서구 화곡로24길 55 (화곡동),02-2663-2100,3,65,0,6,6,20,17,37.53859238,126.8394772,미운영,0,1854,2,6
강서구,11500000126,새자연어린이집,민간,정상,7513,서울특별시 강서구 방화대로47가길 22 삼익아파트 내 유치원동 (방화동),02-2666-6467,5,223,1,7,10,72,34,37.57713921,126.8148316,운영,0,1351,2,7
강서구,11500000157,석란어린이집,민간,정상,7725,서울특별시 강서구 초록마을로32길 38 (화곡동),02-2604-0735,4,263,1,8,6,82,21,37.53825822,126.8473784,미운영,0,2283,2,8
강서구,11500000205,소라어린이집,가정,정상,7748,서울특별시 강서구 곰달래로45길 15 1층 소라어린이집,02-2601-4788,3,56,0,4,9,20,20,37.53307067,126.8563213,미운영,1,1575,2,7
강서구,11500000284,수잔나어린이집,가정,정상,7770,서울특별시 강서구 강서로15길 24 태흥빌라 102호 (화곡동),02-2607-0224,3,52,1,4,6,17,11,37.53241855,126.8447372,미운영,0,2078,2,8
강서구,11500000572,아기천사어린이집,가정,정상,7787,서울특별시 강서구 국회대로7길 91 신도금잔디아파트 104호,02-2607-6421,3,54,0,4,8,20,12,37.52930837,126.8558081,미운영,1,1097,2,5
강서구,11500000181,아이뜰어린이집,가정,정상,7764,서울특별시 강서구 강서로17가길 14 나동 101호(화곡동 계명아파트),02-6401-9195,3,51,0,4,8,16,11,37.53374943,126.8444827,미운영,0,2445,2,8
강서구,11500000280,아이린어린이집,민간,정상,7752,서울특별시 강서구 초록마을로 157-19,02-2601-1300,6,127,1,10,8,48,28,37.5355037,126.8476018,미운영,0,2716,2,10
강서구,11500000605,아이샘어린이집,국공립,정상,7677,서울특별시 강서구 까치산로12길 8-9,02-2603-0191,5,198,1,12,12,67,63,37.54453935,126.8472337,미운영,0,2029,2,6
강서구,11500000723,아장닷컴어린이집,가정,정상,7678,서울특별시 강서구 화곡로42나길 30-17,02-2602-8554,3,78,0,5,5,18,15,37.54737689,126.8478124,미운영,0,1733,2,5
강서구,11500000398,아장아장어린이집,가정,정상,7513,서울특별시 강서구 방화대로47가길 22 404동 103호(방화동 삼환아파트),02-2662-9002,3,63,0,4,8,20,19,37.5768495,126.8139493,미운영,0,1401,2,8
강서구,11500000599,애솔 어린이집,국공립,정상,7730,서울특별시 강서구 초록마을로 162-30,02-2602-0091,3,109,0,8,6,35,12,37.5368178,126.8465469,미운영,0,2566,2,10
강서구,11500000142,엄마사랑어린이집,가정,정상,7509,서울특별시 강서구 금낭화로23길 8 101동 106호(방화동 동성아파트),02-2661-9757,3,47,0,4,5,15,9,37.57952887,126.8132605,미운영,0,842,2,4
강서구,11500000249,엄마품어린이집,가정,정상,7524,서울특별시 강서구 허준로 23 101동 104호(가양동 한강타운),02-2668-3808,3,54,0,4,7,19,18,37.57088739,126.8436018,미운영,0,887,2,2
강서구,11500000529,에반어린이집,민간,정상,7757,서울특별시 강서구 강서로12길 23-7,02-2601-1398,5,120,1,8,10,45,43,37.53208711,126.847951,운영,0,2230,2,9
강서구,11500000313,열매어린이집,가정,정상,7712,서울특별시 강서구 강서로35길 47-5 (화곡3동 1047-6) 허벌빌 101호,02-2699-1045,3,46,0,11,6,15,5,37.54239259,126.8363799,미운영,1,2001,2,5
강서구,11500000110,예손어린이집,민간,정상,7526,서울특별시 강서구 양천로57길 26 예손어린이집 (가양동),02-2659-3430,4,108,0,4,6,39,19,37.56393919,126.8529259,운영,0,1651,2,11
강서구,11500000530,예솔어린이집,가정,정상,7751,서울특별시 강서구 강서로18다길 33,02-2644-1248,4,87,0,5,3,20,6,37.53560638,126.8468831,운영,0,2735,2,11
강서구,11500000299,예은어린이집,민간,정상,7512,서울특별시 강서구 방화대로49길 52,02-2664-1768,11,364,1,19,20,137,104,37.57811462,126.8148886,운영,0,1157,2,6
강서구,11500000389,오즈의마법사어린이집,민간,정상,7643,서울특별시 강서구 수명로1길 16 412동 1층(내발산동 마곡수명산파크4단지아파트),02-2667-3544,5,130,3,6,11,47,38,37.55162512,126.823552,미운영,0,1367,2,5
강서구,11500000014,은도어린이집,국공립,정상,7715,서울특별시 강서구 화곡로26길 33 (화곡동),02-2693-8840,5,196,2,15,14,84,68,37.54013332,126.8407237,미운영,0,2399,2,4
강서구,11500000600,은빛어린이집,국공립,정상,7592,서울특별시 강서구 방화대로44길 49,02-2662-6601,4,176,1,8,9,66,40,37.57122529,126.8184459,미운영,0,2003,2,15
강서구,11500000248,은초록어린이집,국공립,정상,7585,서울특별시 강서구 공항대로39길 59 은초록어린이집 (등촌동),02-3662-3339,5,495,1,8,15,104,84,37.56071982,126.8437249,미운영,0,1505,2,11
강서구,11500000147,자연어린이집,가정,정상,7617,서울특별시 강서구 방화대로 259 101동 104호(공항동해태아파트),02-2662-0583,3,71,0,6,7,20,18,37.56367987,126.8157987,미운영,0,2784,2,13
강서구,11500000073,제일어린이집,민간,정상,7739,서울특별시 강서구 곰달래로53길 80 (화곡동),02-2654-0300,9,264,1,12,9,103,32,37.5348158,126.8577238,운영,0,1510,2,7
강서구,11500000208,주연어린이집,민간,정상,7677,서울특별시 강서구 까치산로12길 7-17,02-2606-0887,5,160,1,8,12,49,42,37.54543718,126.847669,운영,1,1972,2,5
강서구,11500000198,천사어린이집,가정,정상,7773,서울특별시 강서구 강서로13길 28 (화곡동),02-2697-6733,4,65,0,4,9,20,19,37.53164208,126.8452253,운영,0,1900,2,9
강서구,11500000368,파란하늘빛어린이집,가정,정상,7522,서울특별시 강서구 양천로47길 94 101동 105호(마곡동 금호어울림아파트),02-3661-8770,3,58,0,4,8,20,17,37.57466996,126.8374102,미운영,1,365,2,1
강서구,11500000621,포도나무어린이집,가정,정상,7811,서울특별시 강서구 마곡중앙로 36 마곡엠벨리 15단지 1513-127,02-3662-9107,3,60,0,4,5,20,15,37.5573182,126.8272989,미운영,0,1700,2,7
강서구,11500000283,포도원어린이집,가정,정상,7509,서울특별시 강서구 금낭화로23길 8 110동 103호(방화동 동성아파트),02-6092-2214,3,60,0,4,8,19,18,37.58006271,126.8118412,미운영,1,759,2,4
강서구,11500000654,하나린어린이집,민간,정상,7630,서울특별시 강서구 수명로1길 133,02-2665-6300,6,230,1,12,15,83,75,37.55391431,126.8255101,운영,0,1806,2,8
강서구,11500000114,해다미어린이집,국공립,정상,7750,서울특별시 강서구 곰달래로35길 13 (화곡동),02-2607-4001,8,383,1,22,27,141,114,37.53162098,126.8534023,미운영,0,1588,2,7
강서구,11500000037,해맑은방과후교실어린이집,국공립,정상,7519,서울특별시 강서구 방화대로48길 40 (방화동),070-4339-5343,2,80,0,1,3,23,13,37.57461294,126.8198555,미운영,0,1580,2,12
강서구,11500000091,해바라기어린이집,국공립,정상,7736,서울특별시 강서구 등촌로13자길 39-16,02-2643-7307,5,308,1,10,9,79,42,37.53732504,126.8558295,미운영,0,1844,2,7
강서구,11500000381,해사랑어린이집,민간,정상,7634,서울특별시 강서구 강서로47길 158 203동 1층(내발산동 마곡수명산파크2단지아파트),02-2667-6007,4,113,0,6,8,41,29,37.55440916,126.8281091,미운영,0,1458,2,9
강서구,11500000629,해오름어린이집,가정,정상,7630,서울특별시 강서구 마곡중앙로 33 1401동 102호,02-2663-0675,3,66,0,4,6,20,19,37.55739028,126.8257623,미운영,0,2341,2,8
강서구,11500000220,현대i어린이집,민간,정상,7651,서울특별시 강서구 강서로 348 우장산 힐스테이트 관리동 1층,02-2658-0175,5,204,1,7,12,74,74,37.55720516,126.8381357,미운영,0,1270,2,6
강서구,11500000021,화곡어린이집,법인?단체등,정상,7677,서울특별시 강서구 까치산로 60 화곡어린이집 (화곡동),02-2697-3105,5,154,1,10,9,59,48,37.54390022,126.8465814,미운영,0,2166,2,7
강서구,11500000038,화동교회방과후어린이집,법인?단체등,정상,7783,서울특별시 강서구 곰달래로 200 (화곡동),070-7169-9910,5,300,1,12,7,60,51,37.53108272,126.8553041,미운영,0,1462,2,7
강서구,11500000083,강서어린이집,민간,정상,7662,서울특별시 강서구 까치산로 128 (화곡동),02-2602-2767,6,242,2,9,7,99,39,37.54894924,126.8508888,미운영,0,1222,1,5
강서구,11500000634,강서한강자이어린이집,민간,정상,7528,서울특별시 강서구 양천로55길 55 강서한강자이 관리동어린이집,02-3661-4650,7,219,1,16,17,70,65,37.56629831,126.8481956,미운영,0,1608,1,10
강서구,11500000150,고모랑이모랑어린이집,가정,정상,7623,서울특별시 강서구 송정로 46-6,02-2661-2202,3,54,0,4,2,16,3,37.55896885,126.810853,미운영,0,1369,1,5
강서구,11500000123,고은쁘띠에꼴어린이집,민간,정상,7524,서울특별시 강서구 허준로 47 가양2단지도시개발아파트 관리사무소내 (가양동),02-2668-5445,4,105,0,6,10,40,34,37.56995882,126.8483636,운영,0,916,1,3
강서구,11500000093,공간어린이집,민간,정상,7536,서울특별시 강서구 양천로69길 58 공간어린이집 (염창동),02-3662-8355,5,135,0,16,9,47,30,37.55493073,126.8736881,미운영,0,1987,1,7
강서구,11500000712,구립 강변어린이집,국공립,정상,7525,서울특별시 강서구 허준로 139,02-2659-9046,5,160,1,8,10,57,43,37.56495172,126.8556942,미운영,0,1332,1,10
강서구,11500000741,구립 라온어린이집,국공립,정상,7735,서울특별시 강서구 곰달래로53길 112,02-2655-0644,5,180,1,16,15,67,58,37.53603636,126.8565419,미운영,0,1781,1,8
강서구,11500000682,구립 밤비어린이집,국공립,정상,7566,서울특별시 강서구 공항대로45길 68-6 106동 104호(등촌동 등촌서광마을아파트),02-3662-8003,3,60,0,5,8,20,20,37.55775519,126.8576971,미운영,0,1963,1,10
강서구,11500000247,구립 배다리어린이집,국공립,정상,7766,서울특별시 강서구 곰달래로15길 25 (화곡동),02-2693-9190,5,245,1,12,10,79,58,37.5312696,126.8395466,미운영,0,1323,1,3
강서구,11500000726,구립 아이편한어린이집,국공립,정상,7560,서울특별시 강서구 공항대로 583 염창동 e편한세상 염창아파트 관리동,02-2662-3401,6,262,1,12,15,65,55,37.54936148,126.8706025,미운영,0,2036,1,7
강서구,11500000715,구립 엔젤아이어린이집,국공립,정상,7534,서울특별시 강서구 양천로 507 106동 104호,02-6341-7373,3,47,0,4,7,16,16,37.56088267,126.8566782,미운영,0,1629,1,11
강서구,11500000673,구립 태진한솔어린이집,국공립,정상,7556,서울특별시 강서구 공항대로71길 54 103동 101호(염창동 태진한솔아파트),02-6091-2279,3,53,0,4,9,19,19,37.54928399,126.8739296,미운영,0,1749,1,7
강서구,11500000703,구립 하나로어린이집,국공립,정상,7542,서울특별시 강서구 양천로73길 5 101동 105호,02-2652-5946,3,59,0,4,9,20,20,37.55162665,126.8719,미운영,0,2099,1,8
강서구,11500000713,구립 해뜰어린이집,국공립,정상,7581,서울특별시 강서구 강서로68길 36 등촌주공2단지아파트 근로복지관2층,02-3663-0218,5,94,0,7,13,35,30,37.56514531,126.8432346,미운영,0,1421,1,8
강서구,11500000742,근로복지공단 등촌어린이집,법인?단체등,정상,7580,서울특별시 강서구 강서로56나길 128,02-2659-3370,6,198,1,32,15,73,40,37.5645965,126.8438328,미운영,0,1415,1,7
강서구,11500000593,꼬모어린이집,가정,정상,7539,서울특별시 강서구 양천로 731 동아3차 305-103,070-4791-3727,4,109,1,4,8,20,20,37.55025388,126.8773982,미운영,0,1403,1,6
강서구,11500000180,꿈나무어린이집,가정,정상,7526,서울특별시 강서구 양천로 489 104동 101호(가양동 가양우성아파트),02-3662-8693,3,68,0,4,7,19,15,37.56215758,126.8548365,미운영,0,1733,1,13
강서구,11500000609,다니엘어린이집,가정,재개,7528,서울특별시 강서구 양천로55길 55 108동 102호(가양동 가양한강자이),02-3663-5958,3,61,1,4,3,20,6,37.56690101,126.8491989,미운영,0,1439,1,8
강서구,11500000606,단비어린이집,국공립,정상,7656,서울특별시 강서구 까치산로 166,02-2608-2046,3,90,1,8,9,34,26,37.55187725,126.8530486,미운영,0,1367,1,3
강서구,11500000396,더조은영재어린이집,가정,정상,7595,서울특별시 강서구 방화대로34길 88 102동 103호(방화동 마곡푸르지오아파트),02-2661-1150,4,79,2,4,6,20,20,37.5702009,126.8217197,미운영,0,1882,1,13
강서구,11500000635,도담어린이집,가정,정상,7798,서울특별시 강서구 마곡서1로 100 607-104(마곡동마곡엠벨리6단지),070-4233-1225,4,76,0,4,7,20,19,37.56623096,126.8210217,미운영,0,2729,1,12
강서구,11500000174,동광어린이집,가정,정상,7537,서울특별시 강서구 양천로75길 57 104동 110호(염창동 288 현대1차),02-6734-9988,3,53,0,4,6,20,16,37.55312362,126.8743815,미운영,0,1895,1,7
강서구,11500000596,동글동글어린이집,가정,정상,7531,서울특별시 강서구 허준로 175 가양6단지아파트 603동 101호,02-3663-6031,3,37,0,3,6,12,11,37.56354002,126.8580568,미운영,0,1074,1,9
강서구,11500000417,동부해맑은어린이집,가정,정상,7622,서울특별시 강서구 남부순환로 11 103동 101호(공항동 공항동부센트레빌),02-2666-7952,3,62,0,4,6,19,18,37.56014727,126.8082837,미운영,0,653,1,3
강서구,11500000323,동산어린이집,민간,정상,7538,서울특별시 강서구 양천로75길 44 (염창동),02-2658-6267,6,278,1,10,11,132,78,37.55148689,126.8755382,운영,0,1726,1,7
강서구,11500000239,동아어린이집,가정,정상,7539,서울특별시 강서구 양천로 731 306동 102호(염창동 동아3차아파트),02-2658-9837,3,53,0,4,8,20,20,37.54960744,126.8777635,미운영,1,1330,1,5
강서구,11500000243,둥근마음어린이집,국공립,정상,7581,서울특별시 강서구 강서로68길 36 주공1단지내 둥근마음어린이집 (등촌동),02-2658-7077,5,398,1,8,16,131,64,37.56398409,126.8423401,미운영,0,1301,1,8
강서구,11500000578,뚜띠어린이집,가정,정상,7525,서울특별시 강서구 허준로 139 307-103,070-8748-6916,3,53,1,3,7,12,12,37.56592527,126.8560884,미운영,0,1173,1,7
강서구,11500000331,레드로빈어린이집,가정,정상,7560,서울특별시 강서구 공항대로67길 29-12 세왕네스트빌 102호 레드로빈어린이집 (염창동),02-6737-0110,4,85,0,5,3,20,3,37.54993191,126.8696266,미운영,0,2188,1,8
강서구,11500000034,리틀빌리지어린이집,민간,정상,7560,서울특별시 강서구 공항대로67길 29-4,02-3663-9533,7,333,3,16,19,126,121,37.54988715,126.8700215,운영,0,2093,1,8
강서구,11500000542,리틀킹어린이집,직장,정상,7558,서울특별시 강서구 공항대로 607,02-3660-8053,3,157,1,8,4,49,7,37.54747584,126.8723965,미운영,0,1489,1,7
강서구,11500000707,마곡1 고운비어린이집,국공립,정상,7598,서울특별시 강서구 마곡서1로 131 101동 115호(마곡동 엠벨리1단지아파트),02-2666-2004,4,60,0,4,8,20,20,37.56849832,126.8189562,미운영,0,2485,1,14
강서구,11500000640,마곡2 해오름어린이집,국공립,정상,7598,서울특별시 강서구 마곡서1로 146,02-2661-0204,3,117,1,8,10,39,31,37.56902581,126.8207038,미운영,0,2271,1,13
강서구,11500000647,마곡3 연두어린이집,국공립,정상,7598,서울특별시 강서구 마곡서1로 132,02-2666-3353,4,130,2,7,9,30,26,37.56829691,126.8198141,미운영,0,2512,1,14
강서구,11500000641,마곡4 꿈의숲어린이집,국공립,정상,7595,서울특별시 강서구 마곡서로 175,02-2663-4440,3,171,2,8,13,34,34,37.5693193,126.8241385,미운영,0,1587,1,11
강서구,11500000645,마곡7 미래꿈어린이집,국공립,정상,7798,서울특별시 강서구 마곡서로 133,02-2664-0707,6,240,1,13,17,88,73,37.5658867,126.8227628,미운영,0,2462,1,13
강서구,11500000232,명지어린이집,가정,정상,7736,서울특별시 강서구 등촌로13아길 44 101동 106호(화곡동 명지해드는터 아파트),02-2644-8778,3,48,0,5,2,18,2,37.53689877,126.8563544,미운영,0,1760,1,8
강서구,11500000342,미소담어린이집,민간,정상,7776,서울특별시 강서구 곰달래로18길 33-13 1층 (화곡동),02-2695-2220,5,169,0,7,12,49,44,37.52878417,126.8422077,미운영,0,1160,1,4
강서구,11500000674,미소어린이집,가정,정상,7599,서울특별시 강서구 마곡서1로 81 804동 103호(마곡동 마곡엠벨리 8단지),02-6448-9984,4,64,0,4,7,20,20,37.56349472,126.8198936,미운영,0,2824,1,13
강서구,11500000273,별강서어린이집,민간,정상,7662,서울특별시 강서구 까치산로22길 10 (화곡동),02-2065-5151,6,148,0,12,14,49,40,37.54890179,126.8514758,미운영,0,1247,1,5
강서구,11500000390,사랑맘어린이집,가정,정상,7595,서울특별시 강서구 방화대로34길 88 107동 104호(방화동 대우푸르지오),02-2665-1800,4,67,0,4,5,19,12,37.56957513,126.8220014,미운영,0,1857,1,12
강서구,11500000624,새싹과 나무어린이집,가정,정상,7595,서울특별시 강서구 양천로30길 77 103-101,02-6223-4613,3,64,0,4,7,20,20,37.56883287,126.8242104,미운영,0,1631,1,10
강서구,11500000171,샛별영재어린이집,가정,정상,7531,서울특별시 강서구 허준로 175 607동 103호(가양동 가양6단지아파트),02-3661-5129,3,38,0,3,6,13,13,37.56282694,126.8588589,미운영,0,1263,1,8
강서구,11500000285,수성어린이집,민간,정상,7763,서울특별시 강서구 가로공원로84길 27 (화곡동),02-2699-1322,8,240,1,18,15,90,82,37.53633277,126.8408793,운영,0,2063,1,6
강서구,11500000201,숲으로 가는 어린이집,가정,정상,7543,서울특별시 강서구 양천로69길 18 101동 111호(염창동 극동아파트),02-2658-6399,3,59,0,4,6,19,17,37.5529349,126.8714818,미운영,0,2236,1,9
강서구,11500000626,신원어린이집,국공립,정상,7538,서울특별시 강서구 양천로77길 45 무학아파트 상가동,02-2659-3967,6,300,2,11,20,110,99,37.55107798,126.8770189,미운영,0,1464,1,6
강서구,11500000332,썬에듀스쿨어린이집,민간,정상,7771,서울특별시 강서구 곰달래로15길 32 (화곡동),02-2694-1300,9,377,2,12,20,125,117,37.53167076,126.8397098,미운영,0,1394,1,3
강서구,11500000176,아기둥지어린이집,가정,정상,7524,서울특별시 강서구 허준로 23 109동 103호(가양동 한강타운아파트),02-2642-6318,3,60,0,4,8,19,19,37.5711468,126.8455992,미운영,0,793,1,2
강서구,11500000589,아란어린이집,민간,정상,7537,서울특별시 강서구 양천로71가길 43,02-3664-9004,7,309,1,11,16,95,53,37.55225474,126.8746336,운영,0,1847,1,7
강서구,11500000173,아이세상어린이집,가정,정상,7524,서울특별시 강서구 허준로 23 105동 106호(가양동 한강타운아파트),02-2659-2431,4,54,0,5,7,20,20,37.57194813,126.8451759,미운영,0,753,1,1
강서구,11500000036,아침해 어린이집,민간,정상,7539,서울특별시 강서구 양천로 731 동아3차아파트 관리소2층 아침해어린이집,02-2668-6733,5,98,0,4,9,37,37,37.5502584,126.8774247,미운영,0,1403,1,6
강서구,11500000608,염창누리봄어린이집,가정,정상,7536,서울특별시 강서구 양천로69길 58 염창동 동아1차 아파트 101-112,02-305-0009,3,68,1,4,7,19,19,37.55474034,126.872585,미운영,0,2189,1,9
강서구,11500000160,염창어린이집,국공립,정상,7561,서울특별시 강서구 공항대로65길 43 염창어린이집 (염창동),02-3665-1960,5,360,1,12,12,84,48,37.55037127,126.8694845,미운영,0,2311,1,8
강서구,11500000619,우리아이어린이집,가정,정상,7595,서울특별시 강서구 양천로30길 108 101동 101호,02-2064-0704,4,55,0,4,6,19,11,37.56793636,126.8226901,미운영,0,2057,1,10
강서구,11500000049,유림어린이집,민간,정상,7777,서울특별시 강서구 곰달래로22길 35 유림어린이집 (화곡동),02-2697-6472,6,156,2,7,14,84,69,37.52876232,126.8444167,운영,1,1280,1,5
강서구,11500000015,즐거운어린이집,국공립,정상,7526,서울특별시 강서구 양천로57길 36 도시개발아파트 5단지 내 (가양동),02-2668-7683,5,369,2,14,14,121,66,37.564136,126.8536046,미운영,0,1502,1,10
강서구,11500000099,캥거루어린이집,민간,정상,7762,서울특별시 강서구 가로공원로76길 9 (화곡동),02-2692-1007,5,77,0,8,10,29,26,37.53660049,126.8373345,미운영,0,1556,1,5
강서구,11500000375,코코베베어린이집,가정,정상,7537,서울특별시 강서구 양천로75길 57 104동 102호(염창동 현대1차아파트),02-2659-7977,4,62,0,4,6,20,9,37.55283077,126.8752081,미운영,0,1847,1,7
강서구,11500000329,토란어린이집,가정,정상,7593,서울특별시 강서구 방화대로34길 113 101동 105호(방화동 방화삼성아파트),02-2649-6980,4,51,0,4,3,19,6,37.57210719,126.8221793,미운영,0,1512,1,10
강서구,11500000043,파랑새 어린이집,민간,정상,7765,서울특별시 강서구 가로공원로84길 42 (화곡동),02-2699-9424,6,167,1,7,6,63,14,37.53573143,126.84094,운영,0,2125,1,6
강서구,11500000090,하나영재어린이집,민간,정상,7534,서울특별시 강서구 양천로 507 강나루현대아파트 단지내 (가양동),02-3663-3088,6,193,1,7,10,74,46,37.56073658,126.8569501,미운영,0,1659,1,11
강서구,11500000228,하은어린이집,가정,정상,7584,서울특별시 강서구 강서로56나길 37 305동 104호(등촌동 등촌주공3단지아파트),02-3665-9419,3,40,0,4,6,13,11,37.56159961,126.841335,미운영,0,1246,1,7
강서구,11500000594,하하호호어린이집,가정,정상,7558,서울특별시 강서구 공항대로75길 30 삼정그린코아 102-106,070-8815-9885,3,84,1,4,7,19,19,37.54785775,126.8744871,미운영,0,1396,1,5
강서구,11500000016,해솔어린이집,국공립,정상,7527,서울특별시 강서구 양천로57길 37 (가양동),02-2659-1302,5,218,2,15,17,104,60,37.56463947,126.8527378,미운영,0,1586,1,11
강서구,11500000170,현대어린이집,가정,정상,7537,서울특별시 강서구 양천로75길 57 104동 109호(염창동 현대),02-3664-9184,3,65,0,4,10,20,20,37.55262116,126.8750812,미운영,0,1847,1,7
강서구,11500000251,현대키즈어린이집,가정,정상,7541,서울특별시 강서구 양천로75길 19 107동 104호(염창동 현대홈타운아파트),02-3665-3717,3,84,0,4,6,19,13,37.55139782,126.8748597,미운영,0,1790,1,7
강서구,11500000746,DYPNF 직장어린이집,직장,정상,7792,서울특별시 강서구 마곡중앙8로7길 39 2층,02-2106-8210,3,96,0,13,4,32,6,37.56440295,126.8389294,미운영,0,754,0,5
강서구,11500000656,KB강서어린이집,직장,정상,7544,서울특별시 강서구 양천로 643 2층,02-3665-8101,4,213,1,19,16,70,48,37.55378652,126.8695904,미운영,0,2343,0,10
강서구,11500000697,LG CNS어린이집,직장,정상,7795,서울특별시 강서구 마곡중앙10로 70,02-2088-4065,3,120,0,14,12,35,29,37.56294099,126.8355936,미운영,0,457,0,3
강서구,11500000732,LG이노텍 서울어린이집,직장,정상,7796,서울특별시 강서구 마곡중앙10로 30 E3,02-2135-1236,4,97,0,16,12,30,25,37.56208025,126.8321802,미운영,0,314,0,1
강서구,11500000727,N젤어린이집,직장,정상,7594,서울특별시 강서구 마곡중앙로 177,02-6340-8131,3,98,0,9,13,30,26,37.57015309,126.8274447,미운영,0,985,0,4
강서구,11500000690,고운아이어린이집,가정,정상,7809,서울특별시 강서구 마곡중앙1로 71 1307동 101호(공항동마곡13단지힐스테이트마스터),02-2665-5757,3,55,0,4,7,20,20,37.55800569,126.8171481,미운영,0,2382,0,8
강서구,11500000716,구립 가온어린이집,국공립,정상,7552,서울특별시 강서구 양천로 590 102동 102호,02-2658-0179,3,65,0,4,8,20,20,37.55579891,126.8644291,미운영,0,2030,0,7
강서구,11500000669,구립 늘사랑어린이집,국공립,정상,7671,서울특별시 강서구 등촌로 163 102동 102호(등촌동 등촌아이파크),02-2658-1342,3,79,0,4,11,20,20,37.5447134,126.8616174,미운영,0,597,0,2
강서구,11500000717,구립 뜰아래어린이집,국공립,정상,7535,서울특별시 강서구 양천로67가길 49 201동 105호,02-3664-5637,3,65,0,4,8,19,19,37.55391833,126.870654,미운영,0,2341,0,9
강서구,11500000671,구립 소은어린이집,국공립,정상,7535,서울특별시 강서구 양천로67길 77 104동 101호(염창동 우성1차아파트),02-3661-6494,3,53,0,4,8,19,19,37.55617616,126.8714367,미운영,0,2013,0,6
강서구,11500000731,구립 엠밸리큰나무어린이집,국공립,정상,7795,서울특별시 강서구 마곡중앙8로1길 10,02-3663-9599,5,230,0,13,14,70,43,37.56184245,126.8360771,미운영,0,650,0,5
강서구,11500000743,구립 염창별하어린이집,국공립,정상,7562,서울특별시 강서구 공항대로 543,02-3662-7942,5,138,0,16,14,45,42,37.55074889,126.8664412,미운영,0,2298,0,9
강서구,11500000683,구립 코알라아가마을어린이집,국공립,정상,7531,서울특별시 강서구 허준로 175 608동 101호(가양동 가양6단지아파트),02-2668-3955,3,43,0,4,8,16,16,37.56307515,126.8592207,미운영,0,1219,0,8
강서구,11500000255,구립공항어린이집,국공립,정상,7625,서울특별시 강서구 남부순환로11길 81 (공항동),02-2665-1514,8,269,1,16,19,104,65,37.55704677,126.8145833,미운영,0,1900,0,6
강서구,11500000238,구립볏고을어린이집,국공립,정상,7656,서울특별시 강서구 화곡로58길 100 (화곡동),02-2605-4098,5,417,2,12,13,86,65,37.55154073,126.8560991,미운영,0,1515,0,5
강서구,11500000006,국공립 가양 7 어린이집,국공립,정상,7531,서울특별시 강서구 허준로 209 (가양동),02-2668-8606,5,196,1,8,13,79,50,37.5612567,126.8624611,미운영,0,1658,0,7
강서구,11500000437,꿈비어린이집,민간,정상,7642,서울특별시 강서구 수명로2가길 22 마곡수명산파크7단지 내 꿈비어린이집,02-2667-1768,6,121,0,7,8,45,22,37.5595365,126.8209783,미운영,0,2697,0,12
강서구,11500000384,꿈이있는어린이집,가정,정상,7552,서울특별시 강서구 공항대로59길 64 202동 106호(등촌동 한사랑삼성2차아파트),070-8292-4739,3,55,0,4,7,19,14,37.55448207,126.8639775,미운영,0,2056,0,7
강서구,11500000169,꿈초롱어린이집,가정,정상,7532,서울특별시 강서구 허준로 234 912동 106호(가양동 도시개발9단지아파트),02-2659-5333,3,55,0,3,6,13,13,37.55830669,126.8631088,미운영,0,1976,0,7
강서구,11500000610,단이슬어린이집,국공립,정상,7624,서울특별시 강서구 공항대로8가길 40,02-3662-2313,6,178,1,15,16,67,66,37.5585281,126.8141561,미운영,0,2116,0,7
강서구,11500000736,두빛나래터발도르프어린이집,협동,정상,7669,서울특별시 강서구 등촌로39마길 52,02-2653-6986,2,52,0,0,5,15,14,37.54646537,126.8574272,미운영,0,871,0,5
강서구,11500000748,등촌제일어린이집,가정,정상,7570,서울특별시 강서구 공항대로53가길 50 1층,02-6338-6046,4,55,0,12,4,18,13,37.55552463,126.8590821,미운영,0,2027,0,8
강서구,11500000702,디앤오 강서어린이집,직장,정상,7789,서울특별시 강서구 마곡중앙로 150 2층,02-2088-2021,4,151,1,12,6,36,7,37.56698994,126.8285358,미운영,0,794,0,4
강서구,11500000708,롯데중앙연구소 mom편한 어린이집,직장,정상,7594,서울특별시 강서구 마곡중앙로 201,02-6309-3148,3,149,0,10,10,36,21,37.57142394,126.827753,미운영,0,752,0,2
강서구,11500000677,마곡10 별솔어린이집,국공립,정상,7629,서울특별시 강서구 마곡중앙1로 72 1012동 1층(마곡동 마곡엠밸리10단지),02-6964-6630,5,194,1,12,14,58,58,37.55974029,126.8187227,미운영,0,2701,0,11
강서구,11500000676,마곡11 나무햇살어린이집,국공립,정상,7808,서울특별시 강서구 공항대로 124 1103동 1층(마곡동마곡엠밸리11단지),02-6958-7701,4,137,0,8,11,45,40,37.55984574,126.8214077,미운영,0,2667,0,12
강서구,11500000678,마곡12 온새미어린이집,국공립,정상,7808,서울특별시 강서구 공항대로 140 1205동 1층(마곡동 마곡엠밸리 12단지),02-2088-1722,4,149,0,8,9,46,43,37.55968624,126.8231906,미운영,0,2628,0,10
강서구,11500000696,마곡13 하나어린이집,국공립,정상,7809,서울특별시 강서구 마곡중앙1로 71 (마곡동 마곡13단지힐스테이트마스터),02-2666-4521,9,317,0,22,22,120,111,37.55776953,126.8188379,미운영,0,2552,0,10
강서구,11500000644,마곡6 마곡숲어린이집,국공립,정상,7798,서울특별시 강서구 마곡서1로 100,02-2698-1004,8,534,4,16,19,93,92,37.56382081,126.8225187,미운영,0,2668,0,13
강서구,11500000740,마곡9 나인어린이집,국공립,정상,7600,서울특별시 강서구 공항대로 103 엠밸리9단지 관리동,02-6956-5573,8,380,1,20,24,122,119,37.56201983,126.818737,미운영,0,2731,0,14
강서구,11500000686,마곡두린아이어린이집,가정,정상,7809,서울특별시 강서구 마곡중앙1로 71 1305동 102호(마곡동 마곡13단지힐스테이트마스터),02-2663-0207,3,55,0,4,6,20,20,37.55762053,126.8171547,미운영,0,2313,0,8
강서구,11500000693,마곡어린이집,가정,정상,7809,서울특별시 강서구 마곡중앙1로 71 1308동 102호(마곡동마곡13단지힐스테이트마스터),02-2665-6777,3,55,0,4,4,20,15,37.55812636,126.8179825,미운영,0,2498,0,9
강서구,11500000699,마곡코오롱어린이집,직장,정상,7793,서울특별시 강서구 마곡동로 110 1층 (마곡동 코오롱미래기술원),02-2199-1990,4,226,1,16,20,65,48,37.56459779,126.8348543,미운영,0,318,0,3
강서구,11500000428,민들레어린이집,가정,정상,7531,서울특별시 강서구 허준로 175 613동 103호(가양동 가양6단지아파트),02-3663-3664,2,68,0,3,6,16,16,37.56235296,126.8599436,미운영,0,1416,0,8
강서구,11500000555,밀알몬테소리어린이집,민간,정상,7552,서울특별시 강서구 공항대로59길 82,02-2658-9960,5,203,1,6,16,75,66,37.55545542,126.8634366,운영,0,2157,0,7
강서구,11500000019,배광 어린이집,민간,정상,7672,서울특별시 강서구 등촌로 101 (등촌동),02-2643-0126,4,105,1,5,8,39,29,37.53908194,126.8633646,운영,0,730,0,3
강서구,11500000113,별빛어린이집,국공립,정상,7571,서울특별시 강서구 공항대로 447 (등촌동),02-3661-8153,5,242,1,7,14,84,69,37.55452391,126.8615866,미운영,0,2047,0,6
강서구,11500000651,블루나인어린이집,직장,정상,7564,서울특별시 강서구 화곡로66길 186-4 186-4,02-3665-9295,10,347,1,20,13,99,42,37.55391149,126.8626047,미운영,0,2043,0,7
강서구,11500000701,사이언스파크어린이집,직장,정상,7796,서울특별시 강서구 마곡중앙10로 30,02-6941-0302,16,2245,3,58,63,300,276,37.56364049,126.8316702,미운영,0,158,0,1
강서구,11500000031,새영어린이집,민간,정상,7546,서울특별시 강서구 양천로63길 58 벽산아파트 관리동 새영어린이집,02-3661-6590,7,163,2,8,12,73,31,37.5576095,126.8660215,운영,0,1854,0,6
강서구,11500000744,성민가정어린이집,가정,정상,7550,서울특별시 강서구 화곡로68길 115 101동 111호,02-6093-8643,3,47,0,4,6,17,10,37.5571207,126.8601797,미운영,0,2122,0,8
강서구,11500000107,아이꿈터어린이집,민간,정상,7532,서울특별시 강서구 허준로 234 가양아파트 9단지내 관리사무실 2층 (가양동),02-3663-5300,4,72,0,6,4,26,6,37.55911551,126.8632573,미운영,0,1891,0,7
강서구,11500000257,아이파크어린이집,가정,정상,7671,서울특별시 강서구 등촌로 163 203동 103호(등촌동 등촌동아이파크아파트),02-2645-2629,4,55,0,5,4,19,11,37.54315626,126.8591506,미운영,0,814,0,3
강서구,11500000576,예꿈어린이집,가정,정상,7766,서울특별시 강서구 월정로 160 화곡대림아파트 1동 104호 (화곡동 361-1),070-4642-7953,3,52,2,4,7,19,19,37.53394131,126.8380757,미운영,0,1514,0,4
강서구,11500000558,주영어린이집,민간,정상,7669,서울특별시 강서구 등촌로39길 42,02-2654-2081,6,180,1,7,12,61,35,37.54643253,126.8603402,운영,0,721,0,4
강서구,11500000653,지니어스어린이집,민간,정상,7550,서울특별시 강서구 화곡로68길 102 서울 시니어스 가양타워 1층,02-3663-1004,5,150,0,12,11,49,47,37.55698815,126.8593317,미운영,0,2065,0,8
강서구,11500000602,키즈네이션어린이집,민간,정상,7535,서울특별시 강서구 양천로67길 71-7,070-7681-7990,7,356,1,8,5,83,12,37.55650617,126.8702035,미운영,0,1876,0,6
강서구,11500000595,키즈파랑새어린이집,가정,정상,7665,서울특별시 강서구 공항대로58길 46 등촌동 532-7,02-2644-9232,4,61,0,5,3,19,9,37.5497792,126.8621852,미운영,0,1681,0,7
강서구,11500000533,튼튼어린이집,민간,재개,7669,서울특별시 강서구 등촌로39라길 21 (등촌동),02-2653-3313,6,153,1,8,14,57,50,37.54688454,126.8613531,미운영,0,795,0,4
강서구,11500000611,튼튼키즈어린이집,민간,정상,7669,서울특별시 강서구 등촌로39라길 19,02-2653-3133,5,174,1,7,7,57,24,37.54681268,126.8611931,미운영,0,795,0,4
강서구,11500000224,푸르미어린이집,가정,정상,7535,서울특별시 강서구 양천로67길 32 103동 105호(염창동 신동아아파트),02-3661-7002,3,54,0,3,8,19,19,37.55468062,126.8694672,미운영,0,2324,0,9
강서구,11500000223,푸른꿈어린이집,가정,정상,7551,서울특별시 강서구 공항대로55길 50 203동 101호(등촌동 대동황토방2차아파트),02-2668-1079,3,88,0,4,7,20,19,37.55539608,126.8627689,미운영,0,2087,0,8
강서구,11500000241,프란치스코어린이집,사회복지법인,정상,7627,서울특별시 강서구 송정로1길 13 프란치스코어린이집,02-2665-7050,10,1176,1,20,40,173,142,37.55617252,126.8114542,미운영,0,1100,0,3
강서구,11500000592,하늘누리어린이집,가정,정상,7641,서울특별시 강서구 남부순환로17길 58 1층,02-6401-8018,4,90,0,4,3,20,4,37.54743636,126.8243352,미운영,0,717,0,2
강서구,11500000004,하얀돌어린이집,국공립,정상,7670,서울특별시 강서구 등촌로39가길 10 (등촌동),02-2643-5630,4,144,1,10,10,57,38,37.54587052,126.8600083,미운영,0,632,0,3
강서구,11500000587,하울어린이집,가정,정상,7667,서울특별시 강서구 등촌로53길 39 103동 107호,02-2643-6789,4,59,0,4,8,20,14,37.54923923,126.8620984,미운영,0,1477,0,6
강서구,11500000659,한국공항공사어린이집,직장,정상,7505,서울특별시 강서구 하늘길 78 .,02-2660-2630,7,389,1,33,20,85,54,37.56078389,126.7996463,미운영,0,38,0,
강서구,11500000216,한마음 어린이집,가정,정상,7544,서울특별시 강서구 양천로 637 101동 103호(염창동 삼성한마음아파트),02-6738-5307,4,54,0,4,7,19,18,37.55446676,126.8682003,미운영,0,2338,0,8
강서구,11500000367,해울어린이집,민간,정상,7547,서울특별시 강서구 양천로 595 금호타운아파트 상가 1층 (염창동),02-2654-7513,3,74,0,3,10,27,27,37.55626626,126.8651173,미운영,0,1993,0,7
강서구,11500000695,해피랜드어린이집,가정,정상,7809,서울특별시 강서구 마곡중앙1로 71 1312동 106호(마곡동마곡13단지힐스테이트마스터),02-2667-0008,3,55,0,5,5,20,20,37.55808573,126.8193917,미운영,0,2700,0,11
강서구,11500000675,행복한어린이집,가정,정상,7629,서울특별시 강서구 마곡중앙1로 72 1018동 101호(마곡동 마곡엠밸리10단지),02-6398-7839,3,71,1,4,6,20,19,37.55904703,126.8190583,미운영,0,2696,0,10
강서구,11500000747,홈앤쇼핑 어린이집,직장,정상,7807,서울특별시 강서구 공항대로 150 홈앤쇼핑 3층,02-2662-0720,3,109,0,20,7,30,10,37.55948311,126.8244219,미운영,0,2626,0,11
